[
    {
        "id": "5473254",
        "gmt": "5.30",
        "airport_id": "144",
        "iata_code": "AGR",
        "city_iata_code": "AGR",
        "icao_code": "VIAG",
        "country_iso2": "IN",
        "geoname_id": "6301090",
        "latitude": "27.158333",
        "longitude": "77.962776",
        "airport_name": "Kheria",
        "country_name": "India",
        "phone_number": null,
        "timezone": "Asia/Kolkata"
    },
    {
        "id": "5473260",
        "gmt": "5.30",
        "airport_id": "150",
        "iata_code": "AGX",
        "city_iata_code": "AGX",
        "icao_code": "VOAT",
        "country_iso2": "IN",
        "geoname_id": "7668633",
        "latitude": "10.828967",
        "longitude": "72.17987",
        "airport_name": "Agatti Island",
        "country_name": "India",
        "phone_number": null,
        "timezone": "Asia/Kolkata"
    },
    {
        "id": "5473306",
        "gmt": "5.30",
        "airport_id": "196",
        "iata_code": "AJL",
        "city_iata_code": "AJL",
        "icao_code": "VEAZ",
        "country_iso2": "IN",
        "geoname_id": null,
        "latitude": "23.838985",
        "longitude": "92.62482",
        "airport_name": "Aizawl",
        "country_name": "India",
        "phone_number": null,
        "timezone": "Asia/Kolkata"
    },
    {
        "id": "5473315",
        "gmt": "5.30",
        "airport_id": "205",
        "iata_code": "AKD",
        "city_iata_code": "AKD",
        "icao_code": "VAAK",
        "country_iso2": "IN",
        "geoname_id": "6301030",
        "latitude": "20.666668",
        "longitude": "77.083336",
        "airport_name": "Akola",
        "country_name": "India",
        "phone_number": null,
        "timezone": "Asia/Kolkata"
    },
    {
        "id": "5473365",
        "gmt": "5.30",
        "airport_id": "255",
        "iata_code": "AMD",
        "city_iata_code": "AMD",
        "icao_code": "VAAH",
        "country_iso2": "IN",
        "geoname_id": "6301029",
        "latitude": "23.06639",
        "longitude": "72.62417",
        "airport_name": "Sardar Vallabhbhai Patel International Airport",
        "country_name": "India",
        "phone_number": null,
        "timezone": "Asia/Kolkata"
    },
    {
        "id": "5473526",
        "gmt": "5.30",
        "airport_id": "416",
        "iata_code": "ATQ",
        "city_iata_code": "ATQ",
        "icao_code": "VIAR",
        "country_iso2": "IN",
        "geoname_id": "6301092",
        "latitude": "31.706741",
        "longitude": "74.8073",
        "airport_name": "Raja Sansi International Airport",
        "country_name": "India",
        "phone_number": null,
        "timezone": "Asia/Kolkata"
    },
    {
        "id": "5473661",
        "gmt": "5.30",
        "airport_id": "551",
        "iata_code": "BBI",
        "city_iata_code": "BBI",
        "icao_code": "VEBS",
        "country_iso2": "IN",
        "geoname_id": "6301068",
        "latitude": "20.252853",
        "longitude": "85.81738",
        "airport_name": "Bhubaneswar",
        "country_name": "India",
        "phone_number": null,
        "timezone": "Asia/Kolkata"
    },
    {
        "id": "5473719",
        "gmt": "5.30",
        "airport_id": "609",
        "iata_code": "BDQ",
        "city_iata_code": "BDQ",
        "icao_code": "VABO",
        "country_iso2": "IN",
        "geoname_id": "7668569",
        "latitude": "22.329077",
        "longitude": "73.2157",
        "airport_name": "Vadodara",
        "country_name": "India",
        "phone_number": null,
        "timezone": "Asia/Kolkata"
    },
    {
        "id": "5473742",
        "gmt": "5.30",
        "airport_id": "632",
        "iata_code": "BEP",
        "city_iata_code": "BEP",
        "icao_code": "VOBI",
        "country_iso2": "IN",
        "geoname_id": "6301119",
        "latitude": "15.183333",
        "longitude": "76.9",
        "airport_name": "Bellary",
        "country_name": "India",
        "phone_number": null,
        "timezone": "Asia/Kolkata"
    },
    {
        "id": "5473809",
        "gmt": "5.30",
        "airport_id": "699",
        "iata_code": "BHJ",
        "city_iata_code": "BHJ",
        "icao_code": "VABJ",
        "country_iso2": "IN",
        "geoname_id": "6301034",
        "latitude": "23.2875",
        "longitude": "69.670555",
        "airport_name": "Rudra Mata",
        "country_name": "India",
        "phone_number": null,
        "timezone": "Asia/Kolkata"
    },
    {
        "id": "5473814",
        "gmt": "5.30",
        "airport_id": "704",
        "iata_code": "BHO",
        "city_iata_code": "BHO",
        "icao_code": "VABP",
        "country_iso2": "IN",
        "geoname_id": "6301036",
        "latitude": "23.284761",
        "longitude": "77.34177",
        "airport_name": "Bhopal",
        "country_name": "India",
        "phone_number": null,
        "timezone": "Asia/Kolkata"
    },
    {
        "id": "5473820",
        "gmt": "5.30",
        "airport_id": "710",
        "iata_code": "BHU",
        "city_iata_code": "BHU",
        "icao_code": "VABV",
        "country_iso2": "IN",
        "geoname_id": "6301869",
        "latitude": "21.755",
        "longitude": "72.18444",
        "airport_name": "Bhavnagar",
        "country_name": "India",
        "phone_number": null,
        "timezone": "Asia/Kolkata"
    },
    {
        "id": "5473874",
        "gmt": "5.30",
        "airport_id": "764",
        "iata_code": "BKB",
        "city_iata_code": "BKB",
        "icao_code": "VIBK",
        "country_iso2": "IN",
        "geoname_id": "7730216",
        "latitude": "28.016666",
        "longitude": "73.3",
        "airport_name": "Bikaner",
        "country_name": "India",
        "phone_number": null,
        "timezone": "Asia/Kolkata"
    },
    {
        "id": "5473914",
        "gmt": "5.30",
        "airport_id": "804",
        "iata_code": "BLR",
        "city_iata_code": "BLR",
        "icao_code": "VOBL",
        "country_iso2": "IN",
        "geoname_id": "7303386",
        "latitude": "13.198889",
        "longitude": "77.70556",
        "airport_name": "Bangalore International Airport",
        "country_name": "India",
        "phone_number": "080-6678-2425",
        "timezone": "Asia/Kolkata"
    },
    {
        "id": "5473982",
        "gmt": "5.30",
        "airport_id": "872",
        "iata_code": "BOM",
        "city_iata_code": "BOM",
        "icao_code": "VABB",
        "country_iso2": "IN",
        "geoname_id": "6301032",
        "latitude": "19.095509",
        "longitude": "72.87497",
        "airport_name": "Chhatrapati Shivaji International (Sahar International)",
        "country_name": "India",
        "phone_number": "(022) 2626-40",
        "timezone": "Asia/Kolkata"
    },
    {
        "id": "5474004",
        "gmt": "5.30",
        "airport_id": "894",
        "iata_code": "BPM",
        "city_iata_code": "HYD",
        "icao_code": "VOHY",
        "country_iso2": "IN",
        "geoname_id": "6301124",
        "latitude": "17.449114",
        "longitude": "78.47183",
        "airport_name": "Begumpet",
        "country_name": "India",
        "phone_number": null,
        "timezone": "Asia/Kolkata"
    },
    {
        "id": "5474117",
        "gmt": "5.30",
        "airport_id": "1007",
        "iata_code": "BUP",
        "city_iata_code": "BUP",
        "icao_code": "VIBT",
        "country_iso2": "IN",
        "geoname_id": "7730886",
        "latitude": "30.166668",
        "longitude": "74.96667",
        "airport_name": "Bhatinda",
        "country_name": "India",
        "phone_number": null,
        "timezone": "Asia/Kolkata"
    },
    {
        "id": "5474292",
        "gmt": "5.30",
        "airport_id": "1182",
        "iata_code": "CCJ",
        "city_iata_code": "CCJ",
        "icao_code": "VOCL",
        "country_iso2": "IN",
        "geoname_id": "7668634",
        "latitude": "11.14025",
        "longitude": "75.950584",
        "airport_name": "Kozhikode Airport",
        "country_name": "India",
        "phone_number": null,
        "timezone": "Asia/Kolkata"
    },
    {
        "id": "5474302",
        "gmt": "5.30",
        "airport_id": "1192",
        "iata_code": "CCU",
        "city_iata_code": "CCU",
        "icao_code": "VECC",
        "country_iso2": "IN",
        "geoname_id": "6301069",
        "latitude": "22.64531",
        "longitude": "88.43931",
        "airport_name": "Netaji Subhas Chandra",
        "country_name": "India",
        "phone_number": null,
        "timezone": "Asia/Kolkata"
    },
    {
        "id": "5474321",
        "gmt": "5.30",
        "airport_id": "1211",
        "iata_code": "CDP",
        "city_iata_code": "CDP",
        "icao_code": "VOCP",
        "country_iso2": "IN",
        "geoname_id": "6301123",
        "latitude": "14.516667",
        "longitude": "78.78333",
        "airport_name": "Cuddapah",
        "country_name": "India",
        "phone_number": null,
        "timezone": "Asia/Kolkata"
    },
    {
        "id": "5474449",
        "gmt": "5.30",
        "airport_id": "1339",
        "iata_code": "CJB",
        "city_iata_code": "CJB",
        "icao_code": "VOCB",
        "country_iso2": "IN",
        "geoname_id": "6301121",
        "latitude": "11.031026",
        "longitude": "77.03893",
        "airport_name": "Peelamedu",
        "country_name": "India",
        "phone_number": null,
        "timezone": "Asia/Kolkata"
    },
    {
        "id": "5474563",
        "gmt": "5.30",
        "airport_id": "1453",
        "iata_code": "COH",
        "city_iata_code": "COH",
        "icao_code": "VECO",
        "country_iso2": "IN",
        "geoname_id": "7730933",
        "latitude": "26.333332",
        "longitude": "89.46667",
        "airport_name": "Cooch Behar",
        "country_name": "India",
        "phone_number": null,
        "timezone": "Asia/Kolkata"
    },
    {
        "id": "5474566",
        "gmt": "5.30",
        "airport_id": "1456",
        "iata_code": "COK",
        "city_iata_code": "COK",
        "icao_code": "VOCI",
        "country_iso2": "IN",
        "geoname_id": "7626292",
        "latitude": "10.155644",
        "longitude": "76.39053",
        "airport_name": "Cochin International",
        "country_name": "India",
        "phone_number": null,
        "timezone": "Asia/Kolkata"
    },
    {
        "id": "5474817",
        "gmt": "5.30",
        "airport_id": "1707",
        "iata_code": "DBD",
        "city_iata_code": "DBD",
        "icao_code": "VEDB",
        "country_iso2": "IN",
        "geoname_id": "7730214",
        "latitude": "23.783333",
        "longitude": "86.45",
        "airport_name": "Dhanbad",
        "country_name": "India",
        "phone_number": null,
        "timezone": "Asia/Kolkata"
    },
    {
        "id": "5474849",
        "gmt": "5.30",
        "airport_id": "1739",
        "iata_code": "DED",
        "city_iata_code": "DED",
        "icao_code": "VIDN",
        "country_iso2": "IN",
        "geoname_id": "7668603",
        "latitude": "30.316668",
        "longitude": "78.03333",
        "airport_name": "Dehra Dun",
        "country_name": "India",
        "phone_number": null,
        "timezone": "Asia/Kolkata"
    },
    {
        "id": "5474854",
        "gmt": "5.30",
        "airport_id": "1744",
        "iata_code": "DEL",
        "city_iata_code": "DEL",
        "icao_code": "VIDP",
        "country_iso2": "IN",
        "geoname_id": "6301872",
        "latitude": "28.556555",
        "longitude": "77.10079",
        "airport_name": "Indira Gandhi International",
        "country_name": "India",
        "phone_number": "-33793",
        "timezone": "Asia/Kolkata"
    },
    {
        "id": "5474858",
        "gmt": "5.30",
        "airport_id": "1748",
        "iata_code": "DEP",
        "city_iata_code": "DEP",
        "icao_code": "VEDZ",
        "country_iso2": "IN",
        "geoname_id": "7668589",
        "latitude": "27.35",
        "longitude": "94",
        "airport_name": "Deparizo",
        "country_name": "India",
        "phone_number": null,
        "timezone": "Asia/Kolkata"
    },
    {
        "id": "5474888",
        "gmt": "5.30",
        "airport_id": "1778",
        "iata_code": "DHM",
        "city_iata_code": "DHM",
        "icao_code": "VIGG",
        "country_iso2": "IN",
        "geoname_id": "6453418",
        "latitude": "32.3",
        "longitude": "76.26667",
        "airport_name": "Gaggal Airport",
        "country_name": "India",
        "phone_number": null,
        "timezone": "Asia/Kolkata"
    },
    {
        "id": "5474893",
        "gmt": "5.30",
        "airport_id": "1783",
        "iata_code": "DIB",
        "city_iata_code": "DIB",
        "icao_code": "VEMN",
        "country_iso2": "IN",
        "geoname_id": "6301077",
        "latitude": "27.482908",
        "longitude": "95.021065",
        "airport_name": "Dibrugarh",
        "country_name": "India",
        "phone_number": null,
        "timezone": "Asia/Kolkata"
    },
    {
        "id": "5474906",
        "gmt": "5.30",
        "airport_id": "1796",
        "iata_code": "DIU",
        "city_iata_code": "DIU",
        "icao_code": "VA1P",
        "country_iso2": "IN",
        "geoname_id": "7668568",
        "latitude": "20.716667",
        "longitude": "70.916664",
        "airport_name": "Diu",
        "country_name": "India",
        "phone_number": null,
        "timezone": "Asia/Kolkata"
    },
    {
        "id": "5474955",
        "gmt": "5.30",
        "airport_id": "1845",
        "iata_code": "DMU",
        "city_iata_code": "DMU",
        "icao_code": "VEMR",
        "country_iso2": "IN",
        "geoname_id": "7668593",
        "latitude": "25.879816",
        "longitude": "93.772865",
        "airport_name": "Dimapur",
        "country_name": "India",
        "phone_number": null,
        "timezone": "Asia/Kolkata"
    },
    {
        "id": "5475600",
        "gmt": "5.30",
        "airport_id": "2490",
        "iata_code": "GAU",
        "city_iata_code": "GAU",
        "icao_code": "VEGT",
        "country_iso2": "IN",
        "geoname_id": "1271477",
        "latitude": "26.105982",
        "longitude": "91.58881",
        "airport_name": "Borjhar",
        "country_name": "India",
        "phone_number": null,
        "timezone": "Asia/Kolkata"
    },
    {
        "id": "5475604",
        "gmt": "5.30",
        "airport_id": "2494",
        "iata_code": "GAY",
        "city_iata_code": "GAY",
        "icao_code": "VEGY",
        "country_iso2": "IN",
        "geoname_id": "6301072",
        "latitude": "24.746668",
        "longitude": "84.94583",
        "airport_name": "Gaya",
        "country_name": "India",
        "phone_number": null,
        "timezone": "Asia/Kolkata"
    },
    {
        "id": "5475799",
        "gmt": "5.30",
        "airport_id": "2689",
        "iata_code": "GOI",
        "city_iata_code": "GOI",
        "icao_code": "VAGO",
        "country_iso2": "IN",
        "geoname_id": "6301037",
        "latitude": "15.384534",
        "longitude": "73.83983",
        "airport_name": "Goa International",
        "country_name": "India",
        "phone_number": null,
        "timezone": "Asia/Kolkata"
    },
    {
        "id": "5475806",
        "gmt": "5.30",
        "airport_id": "2696",
        "iata_code": "GOP",
        "city_iata_code": "GOP",
        "icao_code": "VEGK",
        "country_iso2": "IN",
        "geoname_id": "6301071",
        "latitude": "26.746862",
        "longitude": "83.44376",
        "airport_name": "Gorakhpur",
        "country_name": "India",
        "phone_number": null,
        "timezone": "Asia/Kolkata"
    },
    {
        "id": "5475906",
        "gmt": "5.30",
        "airport_id": "2796",
        "iata_code": "GUX",
        "city_iata_code": "GUX",
        "icao_code": "VAGN",
        "country_iso2": "IN",
        "geoname_id": "7730208",
        "latitude": "24.666668",
        "longitude": "77.316666",
        "airport_name": "Guna",
        "country_name": "India",
        "phone_number": null,
        "timezone": "Asia/Kolkata"
    },
    {
        "id": "5475921",
        "gmt": "5.30",
        "airport_id": "2811",
        "iata_code": "GWL",
        "city_iata_code": "GWL",
        "icao_code": "VIGR",
        "country_iso2": "IN",
        "geoname_id": "6301097",
        "latitude": "26.293888",
        "longitude": "78.23",
        "airport_name": "Gwalior",
        "country_name": "India",
        "phone_number": null,
        "timezone": "Asia/Kolkata"
    },
    {
        "id": "5475987",
        "gmt": "5.30",
        "airport_id": "2877",
        "iata_code": "HBX",
        "city_iata_code": "HBX",
        "icao_code": "VAHB",
        "country_iso2": "IN",
        "geoname_id": "7668571",
        "latitude": "15.358738",
        "longitude": "75.08608",
        "airport_name": "Hubli",
        "country_name": "India",
        "phone_number": null,
        "timezone": "Asia/Kolkata"
    },
    {
        "id": "5476072",
        "gmt": "5.30",
        "airport_id": "2962",
        "iata_code": "HJR",
        "city_iata_code": "HJR",
        "icao_code": "VAKJ",
        "country_iso2": "IN",
        "geoname_id": "7668574",
        "latitude": "24.818747",
        "longitude": "79.91642",
        "airport_name": "Khajuraho",
        "country_name": "India",
        "phone_number": null,
        "timezone": "Asia/Kolkata"
    },
    {
        "id": "5476190",
        "gmt": "5.30",
        "airport_id": "3080",
        "iata_code": "HSS",
        "city_iata_code": "HSS",
        "icao_code": "VIHR",
        "country_iso2": "IN",
        "geoname_id": "6301098",
        "latitude": "29.166668",
        "longitude": "75.8",
        "airport_name": "Hissar",
        "country_name": "India",
        "phone_number": null,
        "timezone": "Asia/Kolkata"
    },
    {
        "id": "5476252",
        "gmt": "5.30",
        "airport_id": "3142",
        "iata_code": "HYD",
        "city_iata_code": "HYD",
        "icao_code": "VOHS",
        "country_iso2": "IN",
        "geoname_id": "7729997",
        "latitude": "17.24",
        "longitude": "78.428055",
        "airport_name": "Hyderabad Airport",
        "country_name": "India",
        "phone_number": null,
        "timezone": "Asia/Kolkata"
    },
    {
        "id": "5476310",
        "gmt": "5.30",
        "airport_id": "3200",
        "iata_code": "IDR",
        "city_iata_code": "IDR",
        "icao_code": "VAID",
        "country_iso2": "IN",
        "geoname_id": "6301038",
        "latitude": "22.728651",
        "longitude": "75.80944",
        "airport_name": "Devi Ahilyabai Holkar",
        "country_name": "India",
        "phone_number": null,
        "timezone": "Asia/Kolkata"
    },
    {
        "id": "5476382",
        "gmt": "5.30",
        "airport_id": "3272",
        "iata_code": "IMF",
        "city_iata_code": "IMF",
        "icao_code": "VEIM",
        "country_iso2": "IN",
        "geoname_id": "6301073",
        "latitude": "24.76457",
        "longitude": "93.897064",
        "airport_name": "Municipal",
        "country_name": "India",
        "phone_number": null,
        "timezone": "Asia/Kolkata"
    },
    {
        "id": "5476472",
        "gmt": "5.30",
        "airport_id": "3362",
        "iata_code": "ISK",
        "city_iata_code": "ISK",
        "icao_code": "VANR",
        "country_iso2": "IN",
        "geoname_id": "7668577",
        "latitude": "19.966942",
        "longitude": "73.811264",
        "airport_name": "Gandhinagar Airport",
        "country_name": "India",
        "phone_number": null,
        "timezone": "Asia/Kolkata"
    },
    {
        "id": "5476513",
        "gmt": "5.30",
        "airport_id": "3403",
        "iata_code": "IXA",
        "city_iata_code": "IXA",
        "icao_code": "VEAT",
        "country_iso2": "IN",
        "geoname_id": "6301066",
        "latitude": "23.8926",
        "longitude": "91.244514",
        "airport_name": "Singerbhil",
        "country_name": "India",
        "phone_number": null,
        "timezone": "Asia/Kolkata"
    },
    {
        "id": "5476514",
        "gmt": "5.30",
        "airport_id": "3404",
        "iata_code": "IXB",
        "city_iata_code": "IXB",
        "icao_code": "VEBD",
        "country_iso2": "IN",
        "geoname_id": "6301067",
        "latitude": "26.68488",
        "longitude": "88.324814",
        "airport_name": "Bagdogra",
        "country_name": "India",
        "phone_number": null,
        "timezone": "Asia/Kolkata"
    },
    {
        "id": "5476515",
        "gmt": "5.30",
        "airport_id": "3405",
        "iata_code": "IXC",
        "city_iata_code": "IXC",
        "icao_code": "VICG",
        "country_iso2": "IN",
        "geoname_id": "7668602",
        "latitude": "30.674921",
        "longitude": "76.797386",
        "airport_name": "Chandigarh",
        "country_name": "India",
        "phone_number": null,
        "timezone": "Asia/Kolkata"
    },
    {
        "id": "5476516",
        "gmt": "5.30",
        "airport_id": "3406",
        "iata_code": "IXD",
        "city_iata_code": "IXD",
        "icao_code": "VIAL",
        "country_iso2": "IN",
        "geoname_id": "6301091",
        "latitude": "25.439722",
        "longitude": "81.736115",
        "airport_name": "Bamrauli",
        "country_name": "India",
        "phone_number": null,
        "timezone": "Asia/Kolkata"
    },
    {
        "id": "5476517",
        "gmt": "5.30",
        "airport_id": "3407",
        "iata_code": "IXE",
        "city_iata_code": "IXE",
        "icao_code": "VOML",
        "country_iso2": "IN",
        "geoname_id": "6301126",
        "latitude": "12.963543",
        "longitude": "74.890144",
        "airport_name": "Bajpe",
        "country_name": "India",
        "phone_number": null,
        "timezone": "Asia/Kolkata"
    },
    {
        "id": "5476518",
        "gmt": "5.30",
        "airport_id": "3408",
        "iata_code": "IXG",
        "city_iata_code": "IXG",
        "icao_code": "VABM",
        "country_iso2": "IN",
        "geoname_id": "6301035",
        "latitude": "15.858611",
        "longitude": "74.61833",
        "airport_name": "Sambre",
        "country_name": "India",
        "phone_number": null,
        "timezone": "Asia/Kolkata"
    },
    {
        "id": "5476519",
        "gmt": "5.30",
        "airport_id": "3409",
        "iata_code": "IXH",
        "city_iata_code": "IXH",
        "icao_code": "VEKR",
        "country_iso2": "IN",
        "geoname_id": "7668591",
        "latitude": "24.307222",
        "longitude": "92.00889",
        "airport_name": "Kailashahar",
        "country_name": "India",
        "phone_number": null,
        "timezone": "Asia/Kolkata"
    },
    {
        "id": "5476520",
        "gmt": "5.30",
        "airport_id": "3410",
        "iata_code": "IXI",
        "city_iata_code": "IXI",
        "icao_code": "VELR",
        "country_iso2": "IN",
        "geoname_id": "6301076",
        "latitude": "27.290277",
        "longitude": "94.08889",
        "airport_name": "North Lakhimpur",
        "country_name": "India",
        "phone_number": null,
        "timezone": "Asia/Kolkata"
    },
    {
        "id": "5476521",
        "gmt": "5.30",
        "airport_id": "3411",
        "iata_code": "IXJ",
        "city_iata_code": "IXJ",
        "icao_code": "VIJU",
        "country_iso2": "IN",
        "geoname_id": "7668604",
        "latitude": "32.68077",
        "longitude": "74.84283",
        "airport_name": "Satwari",
        "country_name": "India",
        "phone_number": null,
        "timezone": "Asia/Kolkata"
    },
    {
        "id": "5476522",
        "gmt": "5.30",
        "airport_id": "3412",
        "iata_code": "IXK",
        "city_iata_code": "IXK",
        "icao_code": "VAKS",
        "country_iso2": "IN",
        "geoname_id": "7668575",
        "latitude": "21.319445",
        "longitude": "70.270836",
        "airport_name": "Keshod",
        "country_name": "India",
        "phone_number": null,
        "timezone": "Asia/Kolkata"
    },
    {
        "id": "5476523",
        "gmt": "5.30",
        "airport_id": "3413",
        "iata_code": "IXL",
        "city_iata_code": "IXL",
        "icao_code": "VILH",
        "country_iso2": "IN",
        "geoname_id": "7668606",
        "latitude": "34.14035",
        "longitude": "77.54746",
        "airport_name": "Bakula Rimpoche",
        "country_name": "India",
        "phone_number": null,
        "timezone": "Asia/Kolkata"
    },
    {
        "id": "5476524",
        "gmt": "5.30",
        "airport_id": "3414",
        "iata_code": "IXM",
        "city_iata_code": "IXM",
        "icao_code": "VOMD",
        "country_iso2": "IN",
        "geoname_id": "6301125",
        "latitude": "9.837471",
        "longitude": "78.09112",
        "airport_name": "Madurai",
        "country_name": "India",
        "phone_number": null,
        "timezone": "Asia/Kolkata"
    },
    {
        "id": "5476525",
        "gmt": "5.30",
        "airport_id": "3415",
        "iata_code": "IXN",
        "city_iata_code": "IXN",
        "icao_code": "VEKW",
        "country_iso2": "IN",
        "geoname_id": "7731127",
        "latitude": "24.063889",
        "longitude": "91.60333",
        "airport_name": "Khowai",
        "country_name": "India",
        "phone_number": null,
        "timezone": "Asia/Kolkata"
    },
    {
        "id": "5476526",
        "gmt": "5.30",
        "airport_id": "3416",
        "iata_code": "IXP",
        "city_iata_code": "IXP",
        "icao_code": "VIPK",
        "country_iso2": "IN",
        "geoname_id": "7668607",
        "latitude": "32.216667",
        "longitude": "75.63333",
        "airport_name": "Pathankot",
        "country_name": "India",
        "phone_number": null,
        "timezone": "Asia/Kolkata"
    },
    {
        "id": "5476527",
        "gmt": "5.30",
        "airport_id": "3417",
        "iata_code": "IXQ",
        "city_iata_code": "IXQ",
        "icao_code": "VEKM",
        "country_iso2": "IN",
        "geoname_id": "7731128",
        "latitude": "24.1325",
        "longitude": "91.81556",
        "airport_name": "Kamalpur",
        "country_name": "India",
        "phone_number": null,
        "timezone": "Asia/Kolkata"
    },
    {
        "id": "5476528",
        "gmt": "5.30",
        "airport_id": "3418",
        "iata_code": "IXR",
        "city_iata_code": "IXR",
        "icao_code": "VERC",
        "country_iso2": "IN",
        "geoname_id": "6301080",
        "latitude": "23.318192",
        "longitude": "85.32285",
        "airport_name": "Birsa Munda International",
        "country_name": "India",
        "phone_number": null,
        "timezone": "Asia/Kolkata"
    },
    {
        "id": "5476529",
        "gmt": "5.30",
        "airport_id": "3419",
        "iata_code": "IXS",
        "city_iata_code": "IXS",
        "icao_code": "VEKU",
        "country_iso2": "IN",
        "geoname_id": "7668592",
        "latitude": "24.916018",
        "longitude": "92.979256",
        "airport_name": "Kumbhirgram",
        "country_name": "India",
        "phone_number": null,
        "timezone": "Asia/Kolkata"
    },
    {
        "id": "5476530",
        "gmt": "5.30",
        "airport_id": "3420",
        "iata_code": "IXT",
        "city_iata_code": "IXT",
        "icao_code": "VEPG",
        "country_iso2": "IN",
        "geoname_id": "7731129",
        "latitude": "28.016666",
        "longitude": "95.333336",
        "airport_name": "Pasighat",
        "country_name": "India",
        "phone_number": null,
        "timezone": "Asia/Kolkata"
    },
    {
        "id": "5476531",
        "gmt": "5.30",
        "airport_id": "3421",
        "iata_code": "IXU",
        "city_iata_code": "IXU",
        "icao_code": "VAAU",
        "country_iso2": "IN",
        "geoname_id": "6301031",
        "latitude": "19.866465",
        "longitude": "75.39721",
        "airport_name": "Chikkalthana",
        "country_name": "India",
        "phone_number": null,
        "timezone": "Asia/Kolkata"
    },
    {
        "id": "5476532",
        "gmt": "5.30",
        "airport_id": "3422",
        "iata_code": "IXV",
        "city_iata_code": "IXV",
        "icao_code": "VEAN",
        "country_iso2": "IN",
        "geoname_id": "7668586",
        "latitude": "28.2",
        "longitude": "94.816666",
        "airport_name": "Along",
        "country_name": "India",
        "phone_number": null,
        "timezone": "Asia/Kolkata"
    },
    {
        "id": "5476533",
        "gmt": "5.30",
        "airport_id": "3423",
        "iata_code": "IXW",
        "city_iata_code": "IXW",
        "icao_code": "VEJS",
        "country_iso2": "IN",
        "geoname_id": "6301075",
        "latitude": "22.813057",
        "longitude": "86.16889",
        "airport_name": "Sonari",
        "country_name": "India",
        "phone_number": null,
        "timezone": "Asia/Kolkata"
    },
    {
        "id": "5476534",
        "gmt": "5.30",
        "airport_id": "3424",
        "iata_code": "IXY",
        "city_iata_code": "IXY",
        "icao_code": "VAKE",
        "country_iso2": "IN",
        "geoname_id": "7668573",
        "latitude": "23.11111",
        "longitude": "70.104164",
        "airport_name": "Kandla",
        "country_name": "India",
        "phone_number": null,
        "timezone": "Asia/Kolkata"
    },
    {
        "id": "5476535",
        "gmt": "5.30",
        "airport_id": "3425",
        "iata_code": "IXZ",
        "city_iata_code": "IXZ",
        "icao_code": "VOPB",
        "country_iso2": "IN",
        "geoname_id": "7910160",
        "latitude": "11.650083",
        "longitude": "92.73227",
        "airport_name": "Port Blair",
        "country_name": "India",
        "phone_number": null,
        "timezone": "Asia/Kolkata"
    },
    {
        "id": "5476547",
        "gmt": "5.30",
        "airport_id": "3437",
        "iata_code": "JAI",
        "city_iata_code": "JAI",
        "icao_code": "VIJP",
        "country_iso2": "IN",
        "geoname_id": "6301101",
        "latitude": "26.820772",
        "longitude": "75.80151",
        "airport_name": "Sanganeer",
        "country_name": "India",
        "phone_number": null,
        "timezone": "Asia/Kolkata"
    },
    {
        "id": "5476590",
        "gmt": "5.30",
        "airport_id": "3480",
        "iata_code": "JDH",
        "city_iata_code": "JDH",
        "icao_code": "VIJO",
        "country_iso2": "IN",
        "geoname_id": "6301100",
        "latitude": "26.263948",
        "longitude": "73.05055",
        "airport_name": "Jodhpur",
        "country_name": "India",
        "phone_number": null,
        "timezone": "Asia/Kolkata"
    },
    {
        "id": "5476612",
        "gmt": "5.30",
        "airport_id": "3502",
        "iata_code": "JGA",
        "city_iata_code": "JGA",
        "icao_code": "VAJM",
        "country_iso2": "IN",
        "geoname_id": "7668572",
        "latitude": "22.463333",
        "longitude": "70.01195",
        "airport_name": "Govardhanpur",
        "country_name": "India",
        "phone_number": null,
        "timezone": "Asia/Kolkata"
    },
    {
        "id": "5476613",
        "gmt": "5.30",
        "airport_id": "3503",
        "iata_code": "JGB",
        "city_iata_code": "JGB",
        "icao_code": "VE46",
        "country_iso2": "IN",
        "geoname_id": "7668585",
        "latitude": "19.066668",
        "longitude": "82.03333",
        "airport_name": "Jagdalpur",
        "country_name": "India",
        "phone_number": null,
        "timezone": "Asia/Kolkata"
    },
    {
        "id": "5476664",
        "gmt": "5.30",
        "airport_id": "3554",
        "iata_code": "JLR",
        "city_iata_code": "JLR",
        "icao_code": "VAJB",
        "country_iso2": "IN",
        "geoname_id": "6301039",
        "latitude": "22.666668",
        "longitude": "79.925",
        "airport_name": "Jabalpur",
        "country_name": "India",
        "phone_number": null,
        "timezone": "Asia/Kolkata"
    },
    {
        "id": "5476720",
        "gmt": "5.30",
        "airport_id": "3610",
        "iata_code": "JRH",
        "city_iata_code": "JRH",
        "icao_code": "VEJT",
        "country_iso2": "IN",
        "geoname_id": "7668590",
        "latitude": "26.734484",
        "longitude": "94.1849",
        "airport_name": "Rowriah",
        "country_name": "India",
        "phone_number": null,
        "timezone": "Asia/Kolkata"
    },
    {
        "id": "5476724",
        "gmt": "5.30",
        "airport_id": "3614",
        "iata_code": "JSA",
        "city_iata_code": "JSA",
        "icao_code": "VIJR",
        "country_iso2": "IN",
        "geoname_id": "7730217",
        "latitude": "26.916668",
        "longitude": "70.9",
        "airport_name": "Jaisalmer",
        "country_name": "India",
        "phone_number": null,
        "timezone": "Asia/Kolkata"
    },
    {
        "id": "5477002",
        "gmt": "5.30",
        "airport_id": "3892",
        "iata_code": "KLH",
        "city_iata_code": "KLH",
        "icao_code": "VAKP",
        "country_iso2": "IN",
        "geoname_id": "6301041",
        "latitude": "16.666668",
        "longitude": "74.333336",
        "airport_name": "Kolhapur",
        "country_name": "India",
        "phone_number": null,
        "timezone": "Asia/Kolkata"
    },
    {
        "id": "5477062",
        "gmt": "5.30",
        "airport_id": "3952",
        "iata_code": "KNU",
        "city_iata_code": "KNU",
        "icao_code": "VIKA",
        "country_iso2": "IN",
        "geoname_id": "6301095",
        "latitude": "26.402779",
        "longitude": "80.4125",
        "airport_name": "Kanpur",
        "country_name": "India",
        "phone_number": null,
        "timezone": "Asia/Kolkata"
    },
    {
        "id": "5477183",
        "gmt": "5.30",
        "airport_id": "4073",
        "iata_code": "KTU",
        "city_iata_code": "KTU",
        "icao_code": "VIKO",
        "country_iso2": "IN",
        "geoname_id": "6301102",
        "latitude": "25",
        "longitude": "76.5",
        "airport_name": "Kota",
        "country_name": "India",
        "phone_number": null,
        "timezone": "Asia/Kolkata"
    },
    {
        "id": "5477207",
        "gmt": "5.30",
        "airport_id": "4097",
        "iata_code": "KUU",
        "city_iata_code": "KUU",
        "icao_code": "VIBR",
        "country_iso2": "IN",
        "geoname_id": "7668601",
        "latitude": "31.983334",
        "longitude": "77.1",
        "airport_name": "Kullu Manali",
        "country_name": "India",
        "phone_number": null,
        "timezone": "Asia/Kolkata"
    },
    {
        "id": "5477351",
        "gmt": "5.30",
        "airport_id": "4241",
        "iata_code": "LDA",
        "city_iata_code": "LDA",
        "icao_code": "VEMH",
        "country_iso2": "IN",
        "geoname_id": "7731215",
        "latitude": "25.033333",
        "longitude": "88.15",
        "airport_name": "Malda",
        "country_name": "India",
        "phone_number": null,
        "timezone": "Asia/Kolkata"
    },
    {
        "id": "5477483",
        "gmt": "5.30",
        "airport_id": "4373",
        "iata_code": "LKO",
        "city_iata_code": "LKO",
        "icao_code": "VILK",
        "country_iso2": "IN",
        "geoname_id": "6301873",
        "latitude": "26.764257",
        "longitude": "80.884186",
        "airport_name": "Amausi",
        "country_name": "India",
        "phone_number": null,
        "timezone": "Asia/Kolkata"
    },
    {
        "id": "5477674",
        "gmt": "5.30",
        "airport_id": "4564",
        "iata_code": "LUH",
        "city_iata_code": "LUH",
        "icao_code": "VILD",
        "country_iso2": "IN",
        "geoname_id": "7668605",
        "latitude": "30.9",
        "longitude": "75.85",
        "airport_name": "Ludhiana Sahnewal Airport",
        "country_name": "India",
        "phone_number": null,
        "timezone": "Asia/Kolkata"
    },
    {
        "id": "5477751",
        "gmt": "5.30",
        "airport_id": "4641",
        "iata_code": "MAA",
        "city_iata_code": "MAA",
        "icao_code": "VOMM",
        "country_iso2": "IN",
        "geoname_id": "6301127",
        "latitude": "12.982267",
        "longitude": "80.16378",
        "airport_name": "Madras International (Meenambakkam)",
        "country_name": "India",
        "phone_number": "044/2256-1818",
        "timezone": "Asia/Kolkata"
    },
    {
        "id": "5478367",
        "gmt": "5.30",
        "airport_id": "5257",
        "iata_code": "MYQ",
        "city_iata_code": "MYQ",
        "icao_code": "VOMY",
        "country_iso2": "IN",
        "geoname_id": "7731318",
        "latitude": "12.3",
        "longitude": "76.65",
        "airport_name": "Mysore",
        "country_name": "India",
        "phone_number": null,
        "timezone": "Asia/Kolkata"
    },
    {
        "id": "5478395",
        "gmt": "5.30",
        "airport_id": "5285",
        "iata_code": "MZU",
        "city_iata_code": "MZU",
        "icao_code": "VEMZ",
        "country_iso2": "IN",
        "geoname_id": "7668594",
        "latitude": "26.116667",
        "longitude": "85.38333",
        "airport_name": "Muzaffarpur",
        "country_name": "India",
        "phone_number": null,
        "timezone": "Asia/Kolkata"
    },
    {
        "id": "5478407",
        "gmt": "5.30",
        "airport_id": "5297",
        "iata_code": "NAG",
        "city_iata_code": "NAG",
        "icao_code": "VANP",
        "country_iso2": "IN",
        "geoname_id": "6301042",
        "latitude": "21.090036",
        "longitude": "79.05636",
        "airport_name": "Dr. Babasaheb Ambedkar International",
        "country_name": "India",
        "phone_number": null,
        "timezone": "Asia/Kolkata"
    },
    {
        "id": "5478459",
        "gmt": "5.30",
        "airport_id": "5349",
        "iata_code": "NDC",
        "city_iata_code": "NDC",
        "icao_code": "VAND",
        "country_iso2": "IN",
        "geoname_id": "7668576",
        "latitude": "19.183332",
        "longitude": "77.316666",
        "airport_name": "Nanded",
        "country_name": "India",
        "phone_number": null,
        "timezone": "Asia/Kolkata"
    },
    {
        "id": "5478573",
        "gmt": "5.30",
        "airport_id": "5463",
        "iata_code": "NMB",
        "city_iata_code": "NMB",
        "icao_code": "VADN",
        "country_iso2": "IN",
        "geoname_id": "7668570",
        "latitude": "20.416668",
        "longitude": "72.95",
        "airport_name": "Daman",
        "country_name": "India",
        "phone_number": null,
        "timezone": "Asia/Kolkata"
    },
    {
        "id": "5479045",
        "gmt": "5.30",
        "airport_id": "5935",
        "iata_code": "PAB",
        "city_iata_code": "PAB",
        "icao_code": "VABI",
        "country_iso2": "IN",
        "geoname_id": "6301033",
        "latitude": "31.316668",
        "longitude": "76.833336",
        "airport_name": "Bilaspur",
        "country_name": "India",
        "phone_number": null,
        "timezone": "Asia/Kolkata"
    },
    {
        "id": "5479061",
        "gmt": "5.30",
        "airport_id": "5951",
        "iata_code": "PAT",
        "city_iata_code": "PAT",
        "icao_code": "VEPT",
        "country_iso2": "IN",
        "geoname_id": "6301079",
        "latitude": "25.59489",
        "longitude": "85.09067",
        "airport_name": "Patna",
        "country_name": "India",
        "phone_number": null,
        "timezone": "Asia/Kolkata"
    },
    {
        "id": "5479071",
        "gmt": "5.30",
        "airport_id": "5961",
        "iata_code": "PBD",
        "city_iata_code": "PBD",
        "icao_code": "VAPR",
        "country_iso2": "IN",
        "geoname_id": "7668578",
        "latitude": "21.647223",
        "longitude": "69.656944",
        "airport_name": "Porbandar",
        "country_name": "India",
        "phone_number": null,
        "timezone": "Asia/Kolkata"
    },
    {
        "id": "5479176",
        "gmt": "5.30",
        "airport_id": "6066",
        "iata_code": "PGH",
        "city_iata_code": "PGH",
        "icao_code": "VIPT",
        "country_iso2": "IN",
        "geoname_id": "7730218",
        "latitude": "29.031944",
        "longitude": "79.47361",
        "airport_name": "Pantnagar",
        "country_name": "India",
        "phone_number": null,
        "timezone": "Asia/Kolkata"
    },
    {
        "id": "5479328",
        "gmt": "5.30",
        "airport_id": "6218",
        "iata_code": "PNQ",
        "city_iata_code": "PNQ",
        "icao_code": "VAPO",
        "country_iso2": "IN",
        "geoname_id": "6452628",
        "latitude": "18.581388",
        "longitude": "73.920555",
        "airport_name": "Lohegaon",
        "country_name": "India",
        "phone_number": null,
        "timezone": "Asia/Kolkata"
    },
    {
        "id": "5479335",
        "gmt": "5.30",
        "airport_id": "6225",
        "iata_code": "PNY",
        "city_iata_code": "PNY",
        "icao_code": "VOPC",
        "country_iso2": "IN",
        "geoname_id": "7730221",
        "latitude": "12.016667",
        "longitude": "79.8",
        "airport_name": "Pondicherry",
        "country_name": "India",
        "phone_number": null,
        "timezone": "Asia/Kolkata"
    },
    {
        "id": "5479489",
        "gmt": "5.30",
        "airport_id": "6379",
        "iata_code": "PUT",
        "city_iata_code": "PUT",
        "icao_code": "VOPN",
        "country_iso2": "IN",
        "geoname_id": "7729986",
        "latitude": "14.133333",
        "longitude": "77.78333",
        "airport_name": "Puttaprathe",
        "country_name": "India",
        "phone_number": null,
        "timezone": "Asia/Kolkata"
    },
    {
        "id": "5479532",
        "gmt": "5.30",
        "airport_id": "6422",
        "iata_code": "PYB",
        "city_iata_code": "PYB",
        "icao_code": "VEJP",
        "country_iso2": "IN",
        "geoname_id": "7731420",
        "latitude": "18.833332",
        "longitude": "82.63333",
        "airport_name": "Jeypore",
        "country_name": "India",
        "phone_number": null,
        "timezone": "Asia/Kolkata"
    },
    {
        "id": "5479692",
        "gmt": "5.30",
        "airport_id": "6582",
        "iata_code": "RAJ",
        "city_iata_code": "RAJ",
        "icao_code": "VARK",
        "country_iso2": "IN",
        "geoname_id": "6301043",
        "latitude": "22.308674",
        "longitude": "70.78235",
        "airport_name": "Civil",
        "country_name": "India",
        "phone_number": null,
        "timezone": "Asia/Kolkata"
    },
    {
        "id": "5479792",
        "gmt": "5.30",
        "airport_id": "6682",
        "iata_code": "RGH",
        "city_iata_code": "RGH",
        "icao_code": "VEBG",
        "country_iso2": "IN",
        "geoname_id": "7668587",
        "latitude": "25.25",
        "longitude": "88.73333",
        "airport_name": "Balurghat",
        "country_name": "India",
        "phone_number": null,
        "timezone": "Asia/Kolkata"
    },
    {
        "id": "5479831",
        "gmt": "5.30",
        "airport_id": "6721",
        "iata_code": "RJA",
        "city_iata_code": "RJA",
        "icao_code": "VORY",
        "country_iso2": "IN",
        "geoname_id": "7668635",
        "latitude": "17.109638",
        "longitude": "81.82081",
        "airport_name": "Rajahmundry",
        "country_name": "India",
        "phone_number": null,
        "timezone": "Asia/Kolkata"
    },
    {
        "id": "5479923",
        "gmt": "5.30",
        "airport_id": "6813",
        "iata_code": "RPR",
        "city_iata_code": "RPR",
        "icao_code": "VARP",
        "country_iso2": "IN",
        "geoname_id": "7668580",
        "latitude": "21.18456",
        "longitude": "81.73975",
        "airport_name": "Raipur",
        "country_name": "India",
        "phone_number": null,
        "timezone": "Asia/Kolkata"
    },
    {
        "id": "5479931",
        "gmt": "5.30",
        "airport_id": "6821",
        "iata_code": "RRK",
        "city_iata_code": "RRK",
        "icao_code": "VERK",
        "country_iso2": "IN",
        "geoname_id": "7730215",
        "latitude": "22.256666",
        "longitude": "84.81472",
        "airport_name": "Rourkela",
        "country_name": "India",
        "phone_number": null,
        "timezone": "Asia/Kolkata"
    }
]